{
  "ciudades": [
    { "nombre": "Fuerte Olimpo", "lat": -21.0415, "lon": -57.8736 },
    { "nombre": "Bahía Negra", "lat": -20.2536, "lon": -58.1625 },
    { "nombre": "Carmelo Peralta", "lat": -22.1176, "lon": -57.8145 },
    { "nombre": "Puerto Casado", "lat": -22.2871, "lon": -57.9355 },
    { "nombre": "Ciudad del Este", "lat": -25.5064, "lon": -54.6927 },
    { "nombre": "Presidente Franco", "lat": -25.5418, "lon": -54.6248 },
    { "nombre": "Hernandarias", "lat": -25.3909, "lon": -54.6414 },
    { "nombre": "Minga Guazú", "lat": -25.4568, "lon": -54.8166 },
    { "nombre": "Pedro Juan Caballero", "lat": -22.5481, "lon": -55.7336 },
    { "nombre": "Bella Vista Norte", "lat": -22.1308, "lon": -56.5222 },
    { "nombre": "Capitán Bado", "lat": -23.2642, "lon": -55.5392 },
    { "nombre": "Zanja Pytã", "lat": -22.7392, "lon": -55.6111 },
    { "nombre": "Asunción", "lat": -25.2637, "lon": -57.5759 },
    { "nombre": "Filadelfia", "lat": -22.3408, "lon": -60.0319 },
    { "nombre": "Mariscal Estigarribia", "lat": -22.0461, "lon": -60.6197 },
    { "nombre": "Loma Plata", "lat": -22.3746, "lon": -59.8443 },
    { "nombre": "Caaguazú", "lat": -25.4643, "lon": -56.0169 },
    { "nombre": "Coronel Oviedo", "lat": -25.4417, "lon": -56.4401 },
    {
      "nombre": "Doctor Juan Eulogio Estigarribia",
      "lat": -25.4242,
      "lon": -55.8806
    },
    { "nombre": "Repatriación", "lat": -25.5289, "lon": -55.9711 },
    { "nombre": "Caazapá", "lat": -26.2028, "lon": -56.3686 },
    { "nombre": "Abaí", "lat": -26.0183, "lon": -55.9403 },
    { "nombre": "Buena Vista", "lat": -26.2494, "lon": -56.2313 },
    { "nombre": "San Juan Nepomuceno", "lat": -25.4756, "lon": -55.9708 },
    { "nombre": "Salto del Guairá", "lat": -24.0625, "lon": -54.3106 },
    { "nombre": "Curuguaty", "lat": -24.4771, "lon": -55.6928 },
    { "nombre": "Yby Pytá", "lat": -23.9103, "lon": -55.3356 },
    { "nombre": "Villa Ygatimí", "lat": -24.0575, "lon": -55.5378 },
    { "nombre": "Areguá", "lat": -25.3127, "lon": -57.3817 },
    { "nombre": "Capiatá", "lat": -25.3552, "lon": -57.4454 },
    { "nombre": "Fernando de la Mora", "lat": -25.3345, "lon": -57.5217 },
    { "nombre": "Lambaré", "lat": -25.3461, "lon": -57.6097 },
    { "nombre": "Luque", "lat": -25.2708, "lon": -57.4848 },
    { "nombre": "Mariano Roque Alonso", "lat": -25.1846, "lon": -57.5466 },
    { "nombre": "Ñemby", "lat": -25.3849, "lon": -57.5351 },
    { "nombre": "San Antonio", "lat": -25.4042, "lon": -57.5528 },
    { "nombre": "San Lorenzo", "lat": -25.3391, "lon": -57.5086 },
    { "nombre": "Itauguá", "lat": -25.38333, "lon": -57.3333 },
    { "nombre": "Villa Elisa", "lat": -25.3643, "lon": -57.5919 },
    { "nombre": "Ypacaraí", "lat": -25.4094, "lon": -57.2897 },
    { "nombre": "Ypane", "lat": -25.4533, "lon": -57.4878 },
    { "nombre": "Concepción", "lat": -23.4061, "lon": -57.4347 },
    { "nombre": "Belén", "lat": -23.4671, "lon": -57.2386 },
    { "nombre": "Horqueta", "lat": -23.3425, "lon": -57.0592 },
    { "nombre": "Loreto", "lat": -23.2839, "lon": -57.1961 },
    { "nombre": "Caacupé", "lat": -25.3875, "lon": -57.1442 },
    { "nombre": "Altos", "lat": -25.2467, "lon": -57.2525 },
    { "nombre": "Atyrá", "lat": -25.2564, "lon": -57.1703 },
    { "nombre": "Eusebio Ayala", "lat": -25.3861, "lon": -57.0647 },
    { "nombre": "Villarrica", "lat": -25.7808, "lon": -56.4497 },
    { "nombre": "Borja", "lat": -25.7772, "lon": -56.2431 },
    { "nombre": "Iturbe", "lat": -25.6597, "lon": -56.4822 },
    { "nombre": "Mbocayaty", "lat": -25.8069, "lon": -56.3372 },
    { "nombre": "Encarnación", "lat": -27.3375, "lon": -55.8669 },
    { "nombre": "Cambyretá", "lat": -27.3361, "lon": -55.8397 },
    { "nombre": "Coronel Bogado", "lat": -27.1642, "lon": -56.2461 },
    { "nombre": "Fram", "lat": -26.9789, "lon": -55.8961 },
    { "nombre": "San Juan Bautista", "lat": -26.6792, "lon": -57.1453 },
    { "nombre": "Ayolas", "lat": -27.3964, "lon": -56.8992 },
    { "nombre": "San Ignacio", "lat": -26.8608, "lon": -57.0653 },
    { "nombre": "Santa Rosa", "lat": -26.8708, "lon": -56.8656 },
    { "nombre": "Pilar", "lat": -26.8597, "lon": -58.3025 },
    { "nombre": "Humaitá", "lat": -27.0611, "lon": -58.2628 },
    {
      "nombre": "San Juan Bautista de Ñeembucú",
      "lat": -26.6728,
      "lon": -58.2231
    },
    { "nombre": "Tacuaras", "lat": -26.8686, "lon": -57.9592 },
    { "nombre": "Paraguarí", "lat": -25.6228, "lon": -57.1503 },
    { "nombre": "Carapeguá", "lat": -25.8003, "lon": -57.2322 },
    { "nombre": "Escobar", "lat": -25.925, "lon": -57.0506 },
    { "nombre": "Yaguarón", "lat": -25.6061, "lon": -57.2892 },
    { "nombre": "Villa Hayes", "lat": -25.0933, "lon": -57.5369 },
    { "nombre": "Benjamín Aceval", "lat": -24.9739, "lon": -57.5481 },
    { "nombre": "Nanawa", "lat": -25.2833, "lon": -57.6494 },
    { "nombre": "José Falcón", "lat": -25.2417, "lon": -57.5356 },
    { "nombre": "San Pedro de Ycuamandiyú", "lat": -24.0939, "lon": -57.0869 },
    { "nombre": "Antequera", "lat": -24.1122, "lon": -56.7519 },
    { "nombre": "Choré", "lat": -24.3561, "lon": -56.5486 },
    { "nombre": "Itacurubí del Rosario", "lat": -24.5153, "lon": -56.7503 }
  ]
}
